<?xml version="1.0" encoding="UTF-8"?>
<routes>
    <route>
        <id>1</id>
        <name>Route A</name>
        <coordinates>
            <latitude>34.0522</latitude>
            <longitude>-118.2437</longitude>
        </coordinates>
        <creationDate>2023-10-01</creationDate>
        <from>
            <x>10</x>
            <y>20</y>
            <z>30</z>
        </from>
        <to>
            <x>30</x>
            <y>40</y>
            <z>30</z>
        </to>
        <distance>15.5</distance>
    </route>
    <route>
        <id>2</id>
        <name>Route B</name>
        <coordinates>
            <latitude>40.7128</latitude>
            <longitude>-74.0060</longitude>
        </coordinates>
        <creationDate>2023-10-02</creationDate>
        <from>
            <x>50</x>
            <y>60</y>
            <z>30</z>
        </from>
        <to>
            <x>70</x>
            <y>80</y>
            <z>30</z>
        </to>
        <distance>25.0</distance>
    </route>
    <route>
        <id>3</id>
        <name>Route C</name>
        <coordinates>
            <latitude>51.5074</latitude>
            <longitude>-0.1278</longitude>
        </coordinates>
        <creationDate>2023-10-03</creationDate>
        <from>
            <x>90</x>
            <y>100</y>
            <z>30</z>
        </from>
        <to>
            <x>110</x>
            <y>120</y>
            <z>30</z>
        </to>
        <distance>30.5</distance>
    </route>
    <route>
        <id>4</id>
        <name>Route D</name>
        <coordinates>
            <latitude>48.8566</latitude>
            <longitude>2.3522</longitude>
        </coordinates>
        <creationDate>2023-10-04</creationDate>
        <from>
            <x>130</x>
            <y>140</y>
            <z>30</z>
        </from>
        <to>
            <x>150</x>
            <y>160</y>
            <z>30</z>
        </to>
        <distance>45.0</distance>
    </route>
    <route>
        <id>5</id>
        <name>Route E</name>
        <coordinates>
            <latitude>35.6895</latitude>
            <longitude>139.6917</longitude>
        </coordinates>
        <creationDate>2023-10-05</creationDate>
        <from>
            <x>170</x>
            <y>180</y>
            <z>30</z>
        </from>
        <to>
            <x>190</x>
            <y>200</y>
            <z>30</z>
        </to>
        <distance>60.0</distance>
    </route>
</routes>